[
  {
    "name": "Indonesia",
    "lat": -2.222961022762514,
    "lon": 117.27043361542225
  },
  {
    "name": "Malaysia",
    "lat": 3.7923928572213983,
    "lon": 109.69886848960218
  },
  {
    "name": "Chile",
    "lat": -37.743606692011916,
    "lon": -71.36437471409556
  },
  {
    "name": "Bolivia",
    "lat": -16.70687679599914,
    "lon": -64.68475368279178
  },
  {
    "name": "Peru",
    "lat": -9.154388497778601,
    "lon": -74.37806454631152
  },
  {
    "name": "Argentina",
    "lat": -35.3786793916512,
    "lon": -65.17307736767694
  },
  {
    "name": "Dhekelia Sovereign Base Area",
    "lat": 35.01779610907654,
    "lon": 33.79299641481012
  },
  {
    "name": "Cyprus",
    "lat": 34.915217059104165,
    "lon": 32.989991561771866
  },
  {
    "name": "India",
    "lat": 22.887985835710005,
    "lon": 79.60712163762605
  },
  {
    "name": "China",
    "lat": 36.55927331817808,
    "lon": 103.83259244500417
  },
  {
    "name": "Israel",
    "lat": 31.447612153578227,
    "lon": 34.99700921700885
  },
  {
    "name": "Palestine",
    "lat": 31.917513084120394,
    "lon": 35.20065009739939
  },
  {
    "name": "Lebanon",
    "lat": 33.92009323529405,
    "lon": 35.87983049751742
  },
  {
    "name": "Ethiopia",
    "lat": 8.62295173872924,
    "lon": 39.60055106466087
  },
  {
    "name": "South Sudan",
    "lat": 7.283530661902219,
    "lon": 30.301119588363765
  },
  {
    "name": "Somalia",
    "lat": 4.748836737446842,
    "lon": 45.7061443405072
  },
  {
    "name": "Kenya",
    "lat": 0.5507660550106522,
    "lon": 37.82243991060529
  },
  {
    "name": "Malawi",
    "lat": -13.217225871194549,
    "lon": 34.28990783752925
  },
  {
    "name": "United Republic of Tanzania",
    "lat": -6.2750974004170015,
    "lon": 34.813586403922066
  },
  {
    "name": "Syria",
    "lat": 35.0230034392104,
    "lon": 38.5045647876633
  },
  {
    "name": "Somaliland",
    "lat": 9.731015902508382,
    "lon": 46.254819242179124
  },
  {
    "name": "France",
    "lat": 42.180107061873116,
    "lon": -2.7552211350665
  },
  {
    "name": "Suriname",
    "lat": 4.131244948279492,
    "lon": -55.91107135496456
  },
  {
    "name": "Guyana",
    "lat": 4.793461821151289,
    "lon": -58.980114652089945
  },
  {
    "name": "South Korea",
    "lat": 36.37335348788239,
    "lon": 127.81909396778252
  },
  {
    "name": "North Korea",
    "lat": 40.15064273863016,
    "lon": 127.18377780193164
  },
  {
    "name": "Morocco",
    "lat": 29.841692143581046,
    "lon": -8.396435017459739
  },
  {
    "name": "Western Sahara",
    "lat": 24.232561147614994,
    "lon": -12.214961317048699
  },
  {
    "name": "Costa Rica",
    "lat": 9.973437000128229,
    "lon": -84.19352758663302
  },
  {
    "name": "Nicaragua",
    "lat": 12.84549461051099,
    "lon": -85.03341037433167
  },
  {
    "name": "Republic of the Congo",
    "lat": -0.8388799421107274,
    "lon": 15.218336122091753
  },
  {
    "name": "Democratic Republic of the Congo",
    "lat": -2.879799895526428,
    "lon": 23.64511363969656
  },
  {
    "name": "Bhutan",
    "lat": 27.42150852788881,
    "lon": 90.40668784260687
  },
  {
    "name": "Ukraine",
    "lat": 49.16007827819145,
    "lon": 31.25530617938662
  },
  {
    "name": "Belarus",
    "lat": 53.53188044413329,
    "lon": 28.033566655607395
  },
  {
    "name": "Namibia",
    "lat": -22.129246657334843,
    "lon": 17.211133154867635
  },
  {
    "name": "South Africa",
    "lat": -29.001032181245197,
    "lon": 25.087364434637134
  },
  {
    "name": "Saint Martin",
    "lat": 18.07762049523388,
    "lon": -63.05507065954958
  },
  {
    "name": "Sint Maarten",
    "lat": 18.040630259535366,
    "lon": -63.07013294590069
  },
  {
    "name": "Oman",
    "lat": 20.601805622435922,
    "lon": 56.092656512707165
  },
  {
    "name": "Uzbekistan",
    "lat": 41.75603590837372,
    "lon": 63.13990894881446
  },
  {
    "name": "Kazakhstan",
    "lat": 48.16065177575142,
    "lon": 67.29596439730298
  },
  {
    "name": "Tajikistan",
    "lat": 38.529885696516466,
    "lon": 71.01583438480755
  },
  {
    "name": "Lithuania",
    "lat": 55.32702358343552,
    "lon": 23.888249038022632
  },
  {
    "name": "Brazil",
    "lat": -10.780858817556457,
    "lon": -53.09248234950059
  },
  {
    "name": "Uruguay",
    "lat": -32.798251179880936,
    "lon": -56.01713024804987
  },
  {
    "name": "Mongolia",
    "lat": 46.825806071450636,
    "lon": 103.05628656671418
  },
  {
    "name": "Russia",
    "lat": 61.96685290954413,
    "lon": 96.62758838729371
  },
  {
    "name": "Czechia",
    "lat": 49.73244814911318,
    "lon": 15.314102922471418
  },
  {
    "name": "Germany",
    "lat": 51.10636351529986,
    "lon": 10.381493799343332
  },
  {
    "name": "Estonia",
    "lat": 58.67101414158215,
    "lon": 25.53579329067697
  },
  {
    "name": "Latvia",
    "lat": 56.851819504647096,
    "lon": 24.908622245775963
  },
  {
    "name": "Norway",
    "lat": 68.79427291869405,
    "lon": 15.409599288226875
  },
  {
    "name": "Sweden",
    "lat": 62.777099821919194,
    "lon": 16.754466424731252
  },
  {
    "name": "Finland",
    "lat": 64.49535902061746,
    "lon": 26.270795024427304
  },
  {
    "name": "Vietnam",
    "lat": 16.642182658897724,
    "lon": 106.30093527174775
  },
  {
    "name": "Cambodia",
    "lat": 12.71556249352094,
    "lon": 104.90280425184903
  },
  {
    "name": "Luxembourg",
    "lat": 49.76682434262135,
    "lon": 6.071763925517945
  },
  {
    "name": "United Arab Emirates",
    "lat": 23.905783081145167,
    "lon": 54.300795629649244
  },
  {
    "name": "Belgium",
    "lat": 50.637461611660044,
    "lon": 4.6399605431060245
  },
  {
    "name": "Georgia",
    "lat": 42.1688007566316,
    "lon": 43.50752638038203
  },
  {
    "name": "North Macedonia",
    "lat": 41.59500494915235,
    "lon": 21.683830378631463
  },
  {
    "name": "Albania",
    "lat": 41.14248213433068,
    "lon": 20.053819122273122
  },
  {
    "name": "Azerbaijan",
    "lat": 40.289118946328884,
    "lon": 47.54211129080396
  },
  {
    "name": "Kosovo",
    "lat": 42.57288337420534,
    "lon": 20.873742919669333
  },
  {
    "name": "Turkey",
    "lat": 39.06108058041753,
    "lon": 35.16723942714946
  },
  {
    "name": "Spain",
    "lat": 40.227233686858504,
    "lon": -3.6526369605257356
  },
  {
    "name": "Laos",
    "lat": 18.502301645904584,
    "lon": 103.73787189457269
  },
  {
    "name": "Kyrgyzstan",
    "lat": 41.46191871552191,
    "lon": 74.54166942762035
  },
  {
    "name": "Armenia",
    "lat": 40.28813425144873,
    "lon": 44.93230117474745
  },
  {
    "name": "Denmark",
    "lat": 55.965377457338825,
    "lon": 10.051389685043452
  },
  {
    "name": "Libya",
    "lat": 27.030277932087323,
    "lon": 18.00960524581526
  },
  {
    "name": "Tunisia",
    "lat": 34.119405237312144,
    "lon": 9.554626259842388
  },
  {
    "name": "Romania",
    "lat": 45.853464124716936,
    "lon": 24.972941889159763
  },
  {
    "name": "Hungary",
    "lat": 47.163243698419926,
    "lon": 19.396759329969008
  },
  {
    "name": "Slovakia",
    "lat": 48.70493530010151,
    "lon": 19.480382917716636
  },
  {
    "name": "Poland",
    "lat": 52.12477181004819,
    "lon": 19.394322185332136
  },
  {
    "name": "Ireland",
    "lat": 53.178221481746064,
    "lon": -8.14504431339899
  },
  {
    "name": "United Kingdom",
    "lat": 54.14704815782669,
    "lon": -2.886951503207557
  },
  {
    "name": "Greece",
    "lat": 39.05118114041936,
    "lon": 22.974818993075917
  },
  {
    "name": "Zambia",
    "lat": -13.460109996513628,
    "lon": 27.7742123284096
  },
  {
    "name": "Sierra Leone",
    "lat": 8.563085846262343,
    "lon": -11.795015640199734
  },
  {
    "name": "Guinea",
    "lat": 10.434649032607828,
    "lon": -10.94306130947578
  },
  {
    "name": "Liberia",
    "lat": 6.452232581602914,
    "lon": -9.319863984315953
  },
  {
    "name": "Central African Republic",
    "lat": 6.566321890640105,
    "lon": 20.46480921377791
  },
  {
    "name": "Sudan",
    "lat": 15.980242324937748,
    "lon": 29.935401586420536
  },
  {
    "name": "Djibouti",
    "lat": 11.750155890292163,
    "lon": 42.566453727853215
  },
  {
    "name": "Eritrea",
    "lat": 15.357513702257231,
    "lon": 38.852944454251286
  },
  {
    "name": "Austria",
    "lat": 47.58565692753397,
    "lon": 14.130672976239197
  },
  {
    "name": "Iraq",
    "lat": 33.039803790399844,
    "lon": 43.74497701608478
  },
  {
    "name": "Italy",
    "lat": 42.78643393577015,
    "lon": 12.07190712222916
  },
  {
    "name": "Switzerland",
    "lat": 46.79895688357992,
    "lon": 8.215353711582264
  },
  {
    "name": "Iran",
    "lat": 32.57067820037889,
    "lon": 54.276946740577635
  },
  {
    "name": "Netherlands",
    "lat": 52.069791481090896,
    "lon": 5.216813875620562
  },
  {
    "name": "Liechtenstein",
    "lat": 47.138206301570584,
    "lon": 9.540900145282913
  },
  {
    "name": "Ivory Coast",
    "lat": 7.627966543256301,
    "lon": -5.569000247811547
  },
  {
    "name": "Republic of Serbia",
    "lat": 44.22214764404905,
    "lon": 20.78925243513805
  },
  {
    "name": "Mali",
    "lat": 17.344162746241345,
    "lon": -3.5390793977250303
  },
  {
    "name": "Senegal",
    "lat": 14.367788645409162,
    "lon": -14.471305976705414
  },
  {
    "name": "Nigeria",
    "lat": 9.595314862037961,
    "lon": 8.091239258465734
  },
  {
    "name": "Benin",
    "lat": 9.641216602468445,
    "lon": 2.328740682876135
  },
  {
    "name": "Angola",
    "lat": -12.29231568060508,
    "lon": 17.5369850086725
  },
  {
    "name": "Croatia",
    "lat": 45.067504777921556,
    "lon": 16.3957248311887
  },
  {
    "name": "Slovenia",
    "lat": 46.11611905275711,
    "lon": 14.808103984457686
  },
  {
    "name": "Qatar",
    "lat": 25.3130746645514,
    "lon": 51.186831349835565
  },
  {
    "name": "Saudi Arabia",
    "lat": 24.12232706859269,
    "lon": 44.536863674168494
  },
  {
    "name": "Botswana",
    "lat": -22.185772285612767,
    "lon": 23.798986700580777
  },
  {
    "name": "Zimbabwe",
    "lat": -19.00253668460274,
    "lon": 29.851884627150046
  },
  {
    "name": "Pakistan",
    "lat": 29.948496828514564,
    "lon": 69.34134310551228
  },
  {
    "name": "Bulgaria",
    "lat": 42.76852262366868,
    "lon": 25.217512545616774
  },
  {
    "name": "Thailand",
    "lat": 15.114399750282233,
    "lon": 101.00333337375011
  },
  {
    "name": "San Marino",
    "lat": 43.93646626338044,
    "lon": 12.44222254538202
  },
  {
    "name": "Haiti",
    "lat": 18.938371361367604,
    "lon": -72.69087413223208
  },
  {
    "name": "Dominican Republic",
    "lat": 18.896365860123474,
    "lon": -70.49658656414677
  },
  {
    "name": "Chad",
    "lat": 15.33307810950757,
    "lon": 18.6462511032848
  },
  {
    "name": "Kuwait",
    "lat": 29.340042153902605,
    "lon": 47.59462338777291
  },
  {
    "name": "El Salvador",
    "lat": 13.73584957589758,
    "lon": -88.87103259252096
  },
  {
    "name": "Guatemala",
    "lat": 15.696016455731815,
    "lon": -90.36015691056666
  },
  {
    "name": "East Timor",
    "lat": -8.823778758719685,
    "lon": 125.85107564115556
  },
  {
    "name": "Brunei",
    "lat": 4.516500394579743,
    "lon": 114.72724567158764
  },
  {
    "name": "Monaco",
    "lat": 43.73984629340104,
    "lon": 7.3989741501966995
  },
  {
    "name": "Algeria",
    "lat": 28.148889643064805,
    "lon": 2.6530913857768414
  },
  {
    "name": "Mozambique",
    "lat": -17.27001004679314,
    "lon": 35.53810553191948
  },
  {
    "name": "eSwatini",
    "lat": -26.561914238892175,
    "lon": 31.480024099453484
  },
  {
    "name": "Burundi",
    "lat": -3.357425368272595,
    "lon": 29.875082730106865
  },
  {
    "name": "Rwanda",
    "lat": -1.9927505324805435,
    "lon": 29.919060743838415
  },
  {
    "name": "Myanmar",
    "lat": 21.16766993019284,
    "lon": 96.48928954374075
  },
  {
    "name": "Bangladesh",
    "lat": 23.845677733978448,
    "lon": 90.24199984454096
  },
  {
    "name": "Andorra",
    "lat": 42.541326538774214,
    "lon": 1.5607561360940787
  },
  {
    "name": "Afghanistan",
    "lat": 33.8362670371747,
    "lon": 66.00844766862315
  },
  {
    "name": "Montenegro",
    "lat": 42.78581815406624,
    "lon": 19.23849998612216
  },
  {
    "name": "Bosnia and Herzegovina",
    "lat": 44.17173403636953,
    "lon": 17.773407982879895
  },
  {
    "name": "Uganda",
    "lat": 1.2756913016376465,
    "lon": 32.367039869294395
  },
  {
    "name": "US Naval Base Guantanamo Bay",
    "lat": 19.929253772086494,
    "lon": -75.15467294809662
  },
  {
    "name": "Cuba",
    "lat": 21.625298070377468,
    "lon": -79.03521168753333
  },
  {
    "name": "Honduras",
    "lat": 14.821009199688481,
    "lon": -86.6252268116429
  },
  {
    "name": "Ecuador",
    "lat": -1.4262414732879636,
    "lon": -78.7722824044243
  },
  {
    "name": "Colombia",
    "lat": 3.909413014625094,
    "lon": -73.08384211224963
  },
  {
    "name": "Paraguay",
    "lat": -23.227518817625498,
    "lon": -58.398422792503
  },
  {
    "name": "Brazilian Island",
    "lat": -30.18795521610712,
    "lon": -57.62304194167083
  },
  {
    "name": "Portugal",
    "lat": 39.58714692235908,
    "lon": -8.590837386940958
  },
  {
    "name": "Moldova",
    "lat": 47.195101515318015,
    "lon": 28.461397099133467
  },
  {
    "name": "Turkmenistan",
    "lat": 39.11593391571899,
    "lon": 59.37596083439823
  },
  {
    "name": "Jordan",
    "lat": 31.24557614134442,
    "lon": 36.7709231799615
  },
  {
    "name": "Nepal",
    "lat": 28.247922231611295,
    "lon": 83.9162533811473
  },
  {
    "name": "Lesotho",
    "lat": -29.579730383989276,
    "lon": 28.228622937487867
  },
  {
    "name": "Cameroon",
    "lat": 5.693058207676711,
    "lon": 12.73698415610122
  },
  {
    "name": "Gabon",
    "lat": -0.5916559471447503,
    "lon": 11.789569267024921
  },
  {
    "name": "Niger",
    "lat": 17.418463778904304,
    "lon": 9.386034031002227
  },
  {
    "name": "Burkina Faso",
    "lat": 12.269553889839209,
    "lon": -1.7555277328352306
  },
  {
    "name": "Togo",
    "lat": 8.526788150903716,
    "lon": 0.9622715789802447
  },
  {
    "name": "Ghana",
    "lat": 7.9539547235318,
    "lon": -1.2165238430488383
  },
  {
    "name": "Guinea-Bissau",
    "lat": 12.026921922773951,
    "lon": -14.977513727249162
  },
  {
    "name": "Gibraltar",
    "lat": 36.129463472032356,
    "lon": -5.346700411151223
  },
  {
    "name": "United States of America",
    "lat": 45.688119396397546,
    "lon": -112.4961635299152
  },
  {
    "name": "Canada",
    "lat": 61.37635110106753,
    "lon": -98.29371332867872
  },
  {
    "name": "Mexico",
    "lat": 23.949171187479656,
    "lon": -102.53030785134244
  },
  {
    "name": "Belize",
    "lat": 17.208318651792933,
    "lon": -88.69388852477508
  },
  {
    "name": "Panama",
    "lat": 8.514556931704401,
    "lon": -80.12129493940317
  },
  {
    "name": "Venezuela",
    "lat": 7.127731548690637,
    "lon": -66.1688403338962
  },
  {
    "name": "Papua New Guinea",
    "lat": -6.4701206458196046,
    "lon": 145.23152393510907
  },
  {
    "name": "Egypt",
    "lat": 26.4929931092068,
    "lon": 29.861110918086858
  },
  {
    "name": "Yemen",
    "lat": 15.90542131204099,
    "lon": 47.5906020576745
  },
  {
    "name": "Mauritania",
    "lat": 20.25621820674383,
    "lon": -10.343397912808822
  },
  {
    "name": "Equatorial Guinea",
    "lat": 1.7069609705004574,
    "lon": 10.332885577931204
  },
  {
    "name": "Gambia",
    "lat": 13.449729499705459,
    "lon": -15.397582022297485
  },
  {
    "name": "Hong Kong S.A.R.",
    "lat": 22.384636949769114,
    "lon": 114.131446756997
  },
  {
    "name": "Vatican",
    "lat": 41.903312653497046,
    "lon": 12.453417684489558
  },
  {
    "name": "Northern Cyprus",
    "lat": 35.27642103044577,
    "lon": 33.59779432808238
  },
  {
    "name": "Cyprus No Mans Area",
    "lat": 35.101996499826875,
    "lon": 33.2574711933296
  },
  {
    "name": "Siachen Glacier",
    "lat": 35.39108187217295,
    "lon": 77.1799526431226
  },
  {
    "name": "Baykonur Cosmodrome",
    "lat": 45.978330069561494,
    "lon": 63.38389704184427
  },
  {
    "name": "Akrotiri Sovereign Base Area",
    "lat": 34.63181339392826,
    "lon": 32.93399506367824
  },
  {
    "name": "Southern Patagonian Ice Field",
    "lat": -49.51234275311339,
    "lon": -73.31883367131411
  },
  {
    "name": "Bir Tawil",
    "lat": 21.879868849890578,
    "lon": 33.68202802415133
  },
  {
    "name": "Antarctica",
    "lat": -80.50821938056103,
    "lon": 19.908399059315396
  },
  {
    "name": "Australia",
    "lat": -25.732310548850457,
    "lon": 134.49111881317657
  },
  {
    "name": "Greenland",
    "lat": 74.73599062153896,
    "lon": -41.34573945889184
  },
  {
    "name": "Fiji",
    "lat": -17.447561999908437,
    "lon": 163.40788205747566
  },
  {
    "name": "New Zealand",
    "lat": -41.829363516945065,
    "lon": 171.47070477758052
  },
  {
    "name": "New Caledonia",
    "lat": -21.304340125170423,
    "lon": 165.70265482949247
  },
  {
    "name": "Madagascar",
    "lat": -19.373167510101418,
    "lon": 46.705998341269655
  },
  {
    "name": "Philippines",
    "lat": 11.762749942993748,
    "lon": 122.87468228522523
  },
  {
    "name": "Sri Lanka",
    "lat": 7.615914642764503,
    "lon": 80.70316267733544
  },
  {
    "name": "Curaçao",
    "lat": 12.193821081104957,
    "lon": -68.97130566269834
  },
  {
    "name": "Aruba",
    "lat": 12.516935254396325,
    "lon": -69.97420088761085
  },
  {
    "name": "The Bahamas",
    "lat": 24.223985674328603,
    "lon": -76.55149356412963
  },
  {
    "name": "Turks and Caicos Islands",
    "lat": 21.78004580782982,
    "lon": -71.87330710820088
  },
  {
    "name": "Taiwan",
    "lat": 23.75298513953668,
    "lon": 120.94987529927786
  },
  {
    "name": "Japan",
    "lat": 37.55117726511581,
    "lon": 137.9783475090987
  },
  {
    "name": "Saint Pierre and Miquelon",
    "lat": 46.93045809316953,
    "lon": -56.30781370696745
  },
  {
    "name": "Iceland",
    "lat": 64.99831584601687,
    "lon": -18.596445939843278
  },
  {
    "name": "Pitcairn Islands",
    "lat": -24.412769318983244,
    "lon": -128.479265463506
  },
  {
    "name": "French Polynesia",
    "lat": -15.188781078900082,
    "lon": -145.0520434100534
  },
  {
    "name": "French Southern and Antarctic Lands",
    "lat": -49.0651508410664,
    "lon": 68.99213524035858
  },
  {
    "name": "Seychelles",
    "lat": -6.489978181316964,
    "lon": 52.06231607308585
  },
  {
    "name": "Kiribati",
    "lat": 0.6151873468127232,
    "lon": -51.525436491276956
  },
  {
    "name": "Marshall Islands",
    "lat": 7.114469365299389,
    "lon": 170.09953073417856
  },
  {
    "name": "Trinidad and Tobago",
    "lat": 10.468829853574036,
    "lon": -61.25844990145354
  },
  {
    "name": "Grenada",
    "lat": 12.153372633266814,
    "lon": -61.65668209147947
  },
  {
    "name": "Saint Vincent and the Grenadines",
    "lat": 13.216216471599083,
    "lon": -61.20335327406603
  },
  {
    "name": "Barbados",
    "lat": 13.181053845994025,
    "lon": -59.56121783703493
  },
  {
    "name": "Saint Lucia",
    "lat": 13.902670590752312,
    "lon": -60.97031644420179
  },
  {
    "name": "Dominica",
    "lat": 15.436440522110125,
    "lon": -61.3569176778275
  },
  {
    "name": "United States Minor Outlying Islands",
    "lat": 13.302890936569137,
    "lon": -103.27829217128915
  },
  {
    "name": "Montserrat",
    "lat": 16.737523402688826,
    "lon": -62.18739871695461
  },
  {
    "name": "Antigua and Barbuda",
    "lat": 17.284096167903193,
    "lon": -61.79218381249263
  },
  {
    "name": "Saint Kitts and Nevis",
    "lat": 17.271042121341612,
    "lon": -62.69854534423242
  },
  {
    "name": "United States Virgin Islands",
    "lat": 17.980545922831173,
    "lon": -64.79765449807056
  },
  {
    "name": "Saint Barthelemy",
    "lat": 17.905584561496,
    "lon": -62.83261980995111
  },
  {
    "name": "Puerto Rico",
    "lat": 18.223816478987484,
    "lon": -66.46760029771657
  },
  {
    "name": "Anguilla",
    "lat": 18.23014617133845,
    "lon": -63.05914841049338
  },
  {
    "name": "British Virgin Islands",
    "lat": 18.50988435227311,
    "lon": -64.50286276409838
  },
  {
    "name": "Jamaica",
    "lat": 18.155226401739878,
    "lon": -77.31881037052179
  },
  {
    "name": "Cayman Islands",
    "lat": 19.426331115904524,
    "lon": -80.87702596888755
  },
  {
    "name": "Bermuda",
    "lat": 32.3101366722147,
    "lon": -64.76349140852258
  },
  {
    "name": "Heard Island and McDonald Islands",
    "lat": -53.08881697236106,
    "lon": 73.50521040756003
  },
  {
    "name": "Saint Helena",
    "lat": -24.911351069267575,
    "lon": -10.138428434568908
  },
  {
    "name": "Mauritius",
    "lat": -20.18554236527556,
    "lon": 57.849699042367874
  },
  {
    "name": "Comoros",
    "lat": -11.884216696116702,
    "lon": 43.6801636436282
  },
  {
    "name": "São Tomé and Principe",
    "lat": 0.4442592566612635,
    "lon": 6.72644242322895
  },
  {
    "name": "Cabo Verde",
    "lat": 15.94515212677401,
    "lon": -23.975655433595136
  },
  {
    "name": "Malta",
    "lat": 35.92102699246763,
    "lon": 14.403753986750504
  },
  {
    "name": "Jersey",
    "lat": 49.22106419607293,
    "lon": -2.1274308068739933
  },
  {
    "name": "Guernsey",
    "lat": 49.484372353539555,
    "lon": -2.5304802909595123
  },
  {
    "name": "Isle of Man",
    "lat": 54.22910190112926,
    "lon": -4.533695232958602
  },
  {
    "name": "Aland",
    "lat": 60.18644723637846,
    "lon": 20.05558282999653
  },
  {
    "name": "Faroe Islands",
    "lat": 62.07402744828395,
    "lon": -6.870554569854665
  },
  {
    "name": "Indian Ocean Territories",
    "lat": -10.692173818862456,
    "lon": 104.61939810040535
  },
  {
    "name": "British Indian Ocean Territory",
    "lat": -7.144333413521102,
    "lon": 72.2988152369614
  },
  {
    "name": "Singapore",
    "lat": 1.3589210191326393,
    "lon": 103.81346757524045
  },
  {
    "name": "Norfolk Island",
    "lat": -29.034975144426735,
    "lon": 167.95516953046908
  },
  {
    "name": "Cook Islands",
    "lat": -19.814517220903465,
    "lon": -158.79120776853648
  },
  {
    "name": "Tonga",
    "lat": -20.06655628192574,
    "lon": -174.86851238701456
  },
  {
    "name": "Wallis and Futuna",
    "lat": -13.738101144663158,
    "lon": -177.05899474351128
  },
  {
    "name": "Samoa",
    "lat": -13.754595714943456,
    "lon": -172.16124917515933
  },
  {
    "name": "Solomon Islands",
    "lat": -8.90958330639849,
    "lon": 159.63809458210542
  },
  {
    "name": "Tuvalu",
    "lat": -7.759093405974489,
    "lon": 178.52037788365752
  },
  {
    "name": "Maldives",
    "lat": 3.8278161688504957,
    "lon": 73.30227098074442
  },
  {
    "name": "Nauru",
    "lat": -0.5207828086013211,
    "lon": 166.9331320666274
  },
  {
    "name": "Federated States of Micronesia",
    "lat": 6.967277109665981,
    "lon": 155.260652848204
  },
  {
    "name": "South Georgia and the Islands",
    "lat": -54.67921918897772,
    "lon": -35.88231643617263
  },
  {
    "name": "Falkland Islands",
    "lat": -51.73330727377425,
    "lon": -59.37610310889765
  },
  {
    "name": "Vanuatu",
    "lat": -16.20126762240611,
    "lon": 167.70084392908544
  },
  {
    "name": "Niue",
    "lat": -19.048919830035103,
    "lon": -169.86934607376287
  },
  {
    "name": "American Samoa",
    "lat": -14.25494433081767,
    "lon": -170.39891983159643
  },
  {
    "name": "Palau",
    "lat": 7.197635971714601,
    "lon": 134.3480333845419
  },
  {
    "name": "Guam",
    "lat": 13.443792985817382,
    "lon": 144.77193911773887
  },
  {
    "name": "Northern Mariana Islands",
    "lat": 16.250858704515533,
    "lon": 145.59995450434062
  },
  {
    "name": "Bahrain",
    "lat": 26.03551940840616,
    "lon": 50.5634956332109
  },
  {
    "name": "Coral Sea Islands",
    "lat": -21.029283666666668,
    "lon": 154.3903646666667
  },
  {
    "name": "Spratly Islands",
    "lat": 10.545024254679225,
    "lon": 114.9270389872097
  },
  {
    "name": "Clipperton Island",
    "lat": 10.297389268315541,
    "lon": -109.22126428343252
  },
  {
    "name": "Macao S.A.R",
    "lat": 22.157784484337594,
    "lon": 113.55019782961578
  },
  {
    "name": "Ashmore and Cartier Islands",
    "lat": -12.432577311268105,
    "lon": 123.58636771289328
  },
  {
    "name": "Bajo Nuevo Bank (Petrel Is.)",
    "lat": 15.7950102177156,
    "lon": -79.98786596215572
  },
  {
    "name": "Serranilla Bank",
    "lat": 15.864461000000002,
    "lon": -78.63811866666667
  },
  {
    "name": "Scarborough Reef",
    "lat": 15.152112666666667,
    "lon": 117.75381166666666
  }
]