[
  {
    "name": "Indonesia",
    "lon": 119.60350503097368,
    "lat": -2.8295232403782262
  },
  {
    "name": "Malaysia",
    "lon": 110.68708724078432,
    "lat": 4.145566487843137
  },
  {
    "name": "Chile",
    "lon": -72.85661663365704,
    "lat": -47.20757422277141
  },
  {
    "name": "Bolivia",
    "lon": -64.89450839637827,
    "lat": -15.554899938967136
  },
  {
    "name": "Peru",
    "lon": -74.48527673192895,
    "lat": -7.885083061131764
  },
  {
    "name": "Argentina",
    "lon": -64.68466691078305,
    "lat": -37.66160481664527
  },
  {
    "name": "Dhekelia Sovereign Base Area",
    "lon": 33.79825306542056,
    "lat": 35.02258229906542
  },
  {
    "name": "Cyprus",
    "lon": 33.24120958139535,
    "lat": 34.961555707641196
  },
  {
    "name": "India",
    "lon": 82.47821350691483,
    "lat": 21.09294457813106
  },
  {
    "name": "China",
    "lon": 111.18842670959059,
    "lat": 31.787147329366768
  },
  {
    "name": "Israel",
    "lon": 35.21088831847134,
    "lat": 31.917953314225052
  },
  {
    "name": "Palestine",
    "lon": 35.13833256410256,
    "lat": 31.895641384615384
  },
  {
    "name": "Lebanon",
    "lon": 35.879499708333334,
    "lat": 33.88609012179487
  },
  {
    "name": "Ethiopia",
    "lon": 38.57371762011173,
    "lat": 9.00492187057728
  },
  {
    "name": "South Sudan",
    "lon": 29.76323863816926,
    "lat": 6.9106665880829015
  },
  {
    "name": "Somalia",
    "lon": 46.746559284431136,
    "lat": 5.930868203592814
  },
  {
    "name": "Kenya",
    "lon": 38.21152588356164,
    "lat": 0.21981390182648403
  },
  {
    "name": "Malawi",
    "lon": 34.09509067116564,
    "lat": -12.89219583190184
  },
  {
    "name": "United Republic of Tanzania",
    "lon": 36.59943250056754,
    "lat": -7.143130507945516
  },
  {
    "name": "Syria",
    "lon": 37.36038465820643,
    "lat": 34.99182557191202
  },
  {
    "name": "Somaliland",
    "lon": 45.632438940438874,
    "lat": 10.288789429467084
  },
  {
    "name": "France",
    "lon": -6.11209631092437,
    "lat": 37.44206390713208
  },
  {
    "name": "Suriname",
    "lon": -55.99887881546812,
    "lat": 4.039423280868386
  },
  {
    "name": "Guyana",
    "lon": -58.8757226690455,
    "lat": 4.616117728813559
  },
  {
    "name": "South Korea",
    "lon": 126.9920282120915,
    "lat": 35.508828138562095
  },
  {
    "name": "North Korea",
    "lon": 126.80103997979798,
    "lat": 39.9658835016835
  },
  {
    "name": "Morocco",
    "lon": -9.030058906771345,
    "lat": 29.55819500490677
  },
  {
    "name": "Western Sahara",
    "lon": -12.25723254861111,
    "lat": 24.512564118055554
  },
  {
    "name": "Costa Rica",
    "lon": -84.34022030108828,
    "lat": 9.745717504232164
  },
  {
    "name": "Nicaragua",
    "lon": -84.70789984951975,
    "lat": 13.137341220917822
  },
  {
    "name": "Republic of the Congo",
    "lon": 14.637114890706318,
    "lat": -0.776318433457249
  },
  {
    "name": "Democratic Republic of the Congo",
    "lon": 23.426903163877267,
    "lat": -3.2563711656206418
  },
  {
    "name": "Bhutan",
    "lon": 90.39305464220183,
    "lat": 27.36834933944954
  },
  {
    "name": "Ukraine",
    "lon": 30.94468691274915,
    "lat": 48.377457837156825
  },
  {
    "name": "Belarus",
    "lon": 28.310369983802218,
    "lat": 53.31917260187553
  },
  {
    "name": "Namibia",
    "lon": 18.28827466525782,
    "lat": -21.90589531783601
  },
  {
    "name": "South Africa",
    "lon": 24.479674010421387,
    "lat": -29.19894199546896
  },
  {
    "name": "Saint Martin",
    "lon": -63.07882286363636,
    "lat": 18.076237863636365
  },
  {
    "name": "Sint Maarten",
    "lon": -63.08708888888889,
    "lat": 18.047246555555557
  },
  {
    "name": "Oman",
    "lon": 56.7582700338819,
    "lat": 21.901709686350436
  },
  {
    "name": "Uzbekistan",
    "lon": 66.77003230912365,
    "lat": 41.0101728667467
  },
  {
    "name": "Kazakhstan",
    "lon": 64.43346796485396,
    "lat": 48.024508342199
  },
  {
    "name": "Tajikistan",
    "lon": 70.70261426173428,
    "lat": 38.74807622036595
  },
  {
    "name": "Lithuania",
    "lon": 23.85996128291815,
    "lat": 55.061819702846975
  },
  {
    "name": "Brazil",
    "lon": -51.29216844582322,
    "lat": -9.791916504181279
  },
  {
    "name": "Uruguay",
    "lon": -56.044145470890406,
    "lat": -32.6105931130137
  },
  {
    "name": "Mongolia",
    "lon": 102.1995574892905,
    "lat": 47.96144338286479
  },
  {
    "name": "Russia",
    "lon": 86.4109668302318,
    "lat": 63.694453661307
  },
  {
    "name": "Czechia",
    "lon": 15.287715771149674,
    "lat": 49.91482982104122
  },
  {
    "name": "Germany",
    "lon": 10.559699230921705,
    "lat": 51.81550560588041
  },
  {
    "name": "Estonia",
    "lon": 24.179828299808428,
    "lat": 58.62515213793104
  },
  {
    "name": "Latvia",
    "lon": 24.61046352854512,
    "lat": 56.90963702394107
  },
  {
    "name": "Norway",
    "lon": 14.795921216223052,
    "lat": 68.05877046981095
  },
  {
    "name": "Sweden",
    "lon": 17.797058607717045,
    "lat": 60.75780316741693
  },
  {
    "name": "Finland",
    "lon": 23.79530414077519,
    "lat": 62.82804087131783
  },
  {
    "name": "Vietnam",
    "lon": 106.63924651128181,
    "lat": 16.352165256841097
  },
  {
    "name": "Cambodia",
    "lon": 104.67998835897436,
    "lat": 12.428675967741935
  },
  {
    "name": "Luxembourg",
    "lon": 6.059853370558376,
    "lat": 49.809647456852794
  },
  {
    "name": "United Arab Emirates",
    "lon": 54.33230148997494,
    "lat": 24.51603520676692
  },
  {
    "name": "Belgium",
    "lon": 4.916005259259259,
    "lat": 50.514602952160494
  },
  {
    "name": "Georgia",
    "lon": 43.59922494183865,
    "lat": 42.07640987054409
  },
  {
    "name": "North Macedonia",
    "lon": 21.741001743801654,
    "lat": 41.58060968870524
  },
  {
    "name": "Albania",
    "lon": 20.001166516245487,
    "lat": 41.04720146028881
  },
  {
    "name": "Azerbaijan",
    "lon": 47.29992237095089,
    "lat": 40.1289816677116
  },
  {
    "name": "Kosovo",
    "lon": 20.881341376383762,
    "lat": 42.55721757933579
  },
  {
    "name": "Turkey",
    "lon": 31.920548671978022,
    "lat": 38.82142035686813
  },
  {
    "name": "Spain",
    "lon": -5.122569351914036,
    "lat": 39.05785932202821
  },
  {
    "name": "Laos",
    "lon": 103.93268123679728,
    "lat": 18.29244652243044
  },
  {
    "name": "Kyrgyzstan",
    "lon": 73.20099926119403,
    "lat": 40.970446832504145
  },
  {
    "name": "Armenia",
    "lon": 45.14796683179724,
    "lat": 40.22392004608295
  },
  {
    "name": "Denmark",
    "lon": 10.360376664220183,
    "lat": 55.80684848577982
  },
  {
    "name": "Libya",
    "lon": 17.993165266666665,
    "lat": 28.509074575757573
  },
  {
    "name": "Tunisia",
    "lon": 10.077767634285713,
    "lat": 34.90411895857142
  },
  {
    "name": "Romania",
    "lon": 25.460839756260434,
    "lat": 45.91284946577629
  },
  {
    "name": "Hungary",
    "lon": 19.19628159316038,
    "lat": 47.156457139150945
  },
  {
    "name": "Slovakia",
    "lon": 19.713680529720282,
    "lat": 48.78604662062937
  },
  {
    "name": "Poland",
    "lon": 18.863979023273274,
    "lat": 51.518782563813815
  },
  {
    "name": "Ireland",
    "lon": -8.660443697994987,
    "lat": 53.33488935087719
  },
  {
    "name": "United Kingdom",
    "lon": -4.202647967524252,
    "lat": 55.86982614761704
  },
  {
    "name": "Greece",
    "lon": 23.855732302821522,
    "lat": 38.24081218864829
  },
  {
    "name": "Zambia",
    "lon": 28.256962415782493,
    "lat": -13.086163879310346
  },
  {
    "name": "Sierra Leone",
    "lon": -12.238882214388491,
    "lat": 8.414220299280576
  },
  {
    "name": "Guinea",
    "lon": -11.368821034398033,
    "lat": 10.140279234029485
  },
  {
    "name": "Liberia",
    "lon": -9.002355116045846,
    "lat": 6.606689803724928
  },
  {
    "name": "Central African Republic",
    "lon": 21.225427720424108,
    "lat": 6.296295054129464
  },
  {
    "name": "Sudan",
    "lon": 30.808939983870964,
    "lat": 15.01014008149406
  },
  {
    "name": "Djibouti",
    "lon": 42.676614712918656,
    "lat": 11.700167464114832
  },
  {
    "name": "Eritrea",
    "lon": 39.80443292079208,
    "lat": 15.065196564356436
  },
  {
    "name": "Austria",
    "lon": 13.572448367458867,
    "lat": 47.577107561243146
  },
  {
    "name": "Iraq",
    "lon": 44.98029619500595,
    "lat": 33.99316253151011
  },
  {
    "name": "Italy",
    "lon": 11.768474258851532,
    "lat": 41.975688447485865
  },
  {
    "name": "Switzerland",
    "lon": 8.292222763684913,
    "lat": 46.78110572363151
  },
  {
    "name": "Iran",
    "lon": 52.97975202126099,
    "lat": 32.43288361803519
  },
  {
    "name": "Netherlands",
    "lon": -0.04330448477751763,
    "lat": 49.135398372365344
  },
  {
    "name": "Liechtenstein",
    "lon": 9.53386,
    "lat": 47.156756448275864
  },
  {
    "name": "Ivory Coast",
    "lon": -5.612100320200126,
    "lat": 7.434383674171357
  },
  {
    "name": "Republic of Serbia",
    "lon": 20.753728852127658,
    "lat": 44.23299893085106
  },
  {
    "name": "Mali",
    "lon": -6.123356154550658,
    "lat": 14.323238390383514
  },
  {
    "name": "Senegal",
    "lon": -14.663894124092888,
    "lat": 13.958111699564586
  },
  {
    "name": "Nigeria",
    "lon": 7.727641106094808,
    "lat": 7.580413602708804
  },
  {
    "name": "Benin",
    "lon": 2.3111413912337664,
    "lat": 9.949191279220779
  },
  {
    "name": "Angola",
    "lon": 16.902197418746194,
    "lat": -11.08085754473524
  },
  {
    "name": "Croatia",
    "lon": 16.05109603203759,
    "lat": 44.53585362793678
  },
  {
    "name": "Slovenia",
    "lon": 14.973991196531792,
    "lat": 46.13666404431599
  },
  {
    "name": "Qatar",
    "lon": 51.16891395850623,
    "lat": 25.452276315352698
  },
  {
    "name": "Saudi Arabia",
    "lon": 42.458115024493246,
    "lat": 23.95623132939189
  },
  {
    "name": "Botswana",
    "lon": 24.577557427824267,
    "lat": -22.398665291841002
  },
  {
    "name": "Zimbabwe",
    "lon": 29.790914044386422,
    "lat": -19.023978454308097
  },
  {
    "name": "Pakistan",
    "lon": 68.93431604670715,
    "lat": 29.42094140635217
  },
  {
    "name": "Bulgaria",
    "lon": 25.21358001592719,
    "lat": 42.49890575881683
  },
  {
    "name": "Thailand",
    "lon": 100.45742827675609,
    "lat": 12.616207362978594
  },
  {
    "name": "San Marino",
    "lon": 12.453615,
    "lat": 43.93452363157895
  },
  {
    "name": "Haiti",
    "lon": -72.915725398773,
    "lat": 18.929565765337422
  },
  {
    "name": "Dominican Republic",
    "lon": -70.39902768965517,
    "lat": 18.81370955
  },
  {
    "name": "Chad",
    "lon": 18.167626169407896,
    "lat": 12.857455379111842
  },
  {
    "name": "Kuwait",
    "lon": 47.97461039919355,
    "lat": 29.418700870967744
  },
  {
    "name": "El Salvador",
    "lon": -88.65311150000001,
    "lat": 13.763859113157894
  },
  {
    "name": "Guatemala",
    "lon": -90.08718195860565,
    "lat": 15.651239108932462
  },
  {
    "name": "East Timor",
    "lon": 125.46209143010753,
    "lat": -8.90723229032258
  },
  {
    "name": "Brunei",
    "lon": 114.80945603205127,
    "lat": 4.555801371794872
  },
  {
    "name": "Monaco",
    "lon": 7.403097750000001,
    "lat": 43.73952308333333
  },
  {
    "name": "Algeria",
    "lon": 2.8141908582866293,
    "lat": 30.77757573098479
  },
  {
    "name": "Mozambique",
    "lon": 35.97813760342613,
    "lat": -17.304893305353318
  },
  {
    "name": "eSwatini",
    "lon": 31.507995741176472,
    "lat": -26.60231929411765
  },
  {
    "name": "Burundi",
    "lon": 30.010683208469054,
    "lat": -3.0856178338762215
  },
  {
    "name": "Rwanda",
    "lon": 29.982158171339567,
    "lat": -1.9730746261682242
  },
  {
    "name": "Myanmar",
    "lon": 96.93752144871796,
    "lat": 17.560497002607562
  },
  {
    "name": "Bangladesh",
    "lon": 90.42383355,
    "lat": 23.26094603508772
  },
  {
    "name": "Andorra",
    "lon": 1.5637602745098038,
    "lat": 42.528383294117646
  },
  {
    "name": "Afghanistan",
    "lon": 68.09181362679739,
    "lat": 35.229162748366015
  },
  {
    "name": "Montenegro",
    "lon": 19.19982145810056,
    "lat": 42.668217893854745
  },
  {
    "name": "Bosnia and Herzegovina",
    "lon": 17.91205700324675,
    "lat": 44.25985754220779
  },
  {
    "name": "Uganda",
    "lon": 32.01200989689035,
    "lat": 1.521094225859247
  },
  {
    "name": "US Naval Base Guantanamo Bay",
    "lon": -75.1634421590909,
    "lat": 19.93233606818182
  },
  {
    "name": "Cuba",
    "lon": -79.44708652836485,
    "lat": 21.845417388579904
  },
  {
    "name": "Honduras",
    "lon": -86.02744080912163,
    "lat": 14.7276455625
  },
  {
    "name": "Ecuador",
    "lon": -82.4413648043622,
    "lat": -1.3037735426305352
  },
  {
    "name": "Colombia",
    "lon": -74.04099578423616,
    "lat": 4.77228337279367
  },
  {
    "name": "Paraguay",
    "lon": -57.96139828270413,
    "lat": -23.937578639157156
  },
  {
    "name": "Brazilian Island",
    "lon": -57.6266788,
    "lat": -30.188649399999996
  },
  {
    "name": "Portugal",
    "lon": -12.645624609561752,
    "lat": 38.858115403984065
  },
  {
    "name": "Moldova",
    "lon": 28.405362436893206,
    "lat": 47.13350261165049
  },
  {
    "name": "Turkmenistan",
    "lon": 57.150920091947114,
    "lat": 39.394453225961534
  },
  {
    "name": "Jordan",
    "lon": 36.196391535714284,
    "lat": 31.61704060989011
  },
  {
    "name": "Nepal",
    "lon": 84.17011304211556,
    "lat": 28.314566483839375
  },
  {
    "name": "Lesotho",
    "lon": 28.114767706790122,
    "lat": -29.5788869845679
  },
  {
    "name": "Cameroon",
    "lon": 12.897941087225275,
    "lat": 6.279920776098901
  },
  {
    "name": "Gabon",
    "lon": 11.23011715389877,
    "lat": -0.9098697175102599
  },
  {
    "name": "Niger",
    "lon": 7.959429452975049,
    "lat": 15.599913880038388
  },
  {
    "name": "Burkina Faso",
    "lon": -2.2772809360360364,
    "lat": 11.629433993693693
  },
  {
    "name": "Togo",
    "lon": 0.6985543312757202,
    "lat": 8.795748242798354
  },
  {
    "name": "Ghana",
    "lon": -1.030102229468599,
    "lat": 8.302153166666667
  },
  {
    "name": "Guinea-Bissau",
    "lon": -15.52894243525741,
    "lat": 11.629070028081124
  },
  {
    "name": "Gibraltar",
    "lon": -5.346686,
    "lat": 36.129543142857145
  },
  {
    "name": "United States of America",
    "lon": -120.5187521641144,
    "lat": 48.05246205897557
  },
  {
    "name": "Canada",
    "lon": -87.81728508908539,
    "lat": 63.81915530052938
  },
  {
    "name": "Mexico",
    "lon": -105.13307740504112,
    "lat": 24.68646119962259
  },
  {
    "name": "Belize",
    "lon": -88.30336029817444,
    "lat": 17.393553304259637
  },
  {
    "name": "Panama",
    "lon": -80.21504030115057,
    "lat": 8.46329011605803
  },
  {
    "name": "Venezuela",
    "lon": -65.60274343923774,
    "lat": 8.429889085910652
  },
  {
    "name": "Papua New Guinea",
    "lon": 149.06055131074035,
    "lat": -6.700824674869656
  },
  {
    "name": "Egypt",
    "lon": 32.324186928165375,
    "lat": 28.75871291524548
  },
  {
    "name": "Yemen",
    "lon": 47.082277157434405,
    "lat": 14.622833620019437
  },
  {
    "name": "Mauritania",
    "lon": -12.70574057155323,
    "lat": 18.5389017547993
  },
  {
    "name": "Equatorial Guinea",
    "lon": 9.279514900398407,
    "lat": 1.9752954541832668
  },
  {
    "name": "Gambia",
    "lon": -15.65692946551724,
    "lat": 13.420890342364531
  },
  {
    "name": "Hong Kong S.A.R.",
    "lon": 114.15763081407036,
    "lat": 22.3522154120603
  },
  {
    "name": "Vatican",
    "lon": 12.453257714285714,
    "lat": 41.903212571428575
  },
  {
    "name": "Northern Cyprus",
    "lon": 33.541586435643566,
    "lat": 35.19547154950495
  },
  {
    "name": "Cyprus No Mans Area",
    "lon": 33.28547897747748,
    "lat": 35.093826594594596
  },
  {
    "name": "Siachen Glacier",
    "lon": 77.2228855,
    "lat": 35.5083795
  },
  {
    "name": "Baykonur Cosmodrome",
    "lon": 63.38390489230769,
    "lat": 45.97198373846154
  },
  {
    "name": "Akrotiri Sovereign Base Area",
    "lon": 32.90276082978723,
    "lat": 34.655007680851064
  },
  {
    "name": "Southern Patagonian Ice Field",
    "lon": -73.40943130000001,
    "lat": -49.50862075
  },
  {
    "name": "Bir Tawil",
    "lon": 33.637095307692306,
    "lat": 21.89466623076923
  },
  {
    "name": "Antarctica",
    "lon": -11.825939276884318,
    "lat": -72.52028733063196
  },
  {
    "name": "Australia",
    "lon": 136.16921377648353,
    "lat": -24.0888473021978
  },
  {
    "name": "Greenland",
    "lon": -41.803830109273335,
    "lat": 70.02937213733671
  },
  {
    "name": "Fiji",
    "lon": 118.76405818631437,
    "lat": -17.503879377371273
  },
  {
    "name": "New Zealand",
    "lon": 158.06300089938216,
    "lat": -40.86710933186231
  },
  {
    "name": "New Caledonia",
    "lon": 166.00198921399593,
    "lat": -21.349372074036513
  },
  {
    "name": "Madagascar",
    "lon": 47.37030315039418,
    "lat": -16.574595606428137
  },
  {
    "name": "Philippines",
    "lon": 122.5255272784229,
    "lat": 11.383248140966785
  },
  {
    "name": "Sri Lanka",
    "lon": 80.6418351021814,
    "lat": 8.257208539609644
  },
  {
    "name": "Cura\u00c3\u00a7ao",
    "lon": -68.98855270454546,
    "lat": 12.212098931818183
  },
  {
    "name": "Aruba",
    "lon": -69.98438165384616,
    "lat": 12.521030653846156
  },
  {
    "name": "The Bahamas",
    "lon": -76.32404664149786,
    "lat": 24.228951751995087
  },
  {
    "name": "Turks and Caicos Islands",
    "lon": -71.88622731455399,
    "lat": 21.72878862910798
  },
  {
    "name": "Taiwan",
    "lon": 120.6060151996435,
    "lat": 23.683346725490196
  },
  {
    "name": "Japan",
    "lon": 134.61233012054086,
    "lat": 34.7136365552359
  },
  {
    "name": "Saint Pierre and Miquelon",
    "lon": -56.29574840243902,
    "lat": 46.933929658536584
  },
  {
    "name": "Iceland",
    "lon": -19.77345741835098,
    "lat": 65.2221396641001
  },
  {
    "name": "Pitcairn Islands",
    "lon": -128.2934850263158,
    "lat": -24.515579
  },
  {
    "name": "French Polynesia",
    "lon": -143.87517298753596,
    "lat": -16.50746165196548
  },
  {
    "name": "French Southern and Antarctic Lands",
    "lon": 66.62823710694184,
    "lat": -46.47833794371482
  },
  {
    "name": "Seychelles",
    "lon": 53.78853632727273,
    "lat": -5.574884681818181
  },
  {
    "name": "Kiribati",
    "lon": 37.257366217207334,
    "lat": -0.013963420310296182
  },
  {
    "name": "Marshall Islands",
    "lon": 169.7334013364929,
    "lat": 7.6611672654028435
  },
  {
    "name": "Trinidad and Tobago",
    "lon": -61.2517515255102,
    "lat": 10.60981862755102
  },
  {
    "name": "Grenada",
    "lon": -61.60965296875,
    "lat": 12.20980203125
  },
  {
    "name": "Saint Vincent and the Grenadines",
    "lon": -61.271607650602405,
    "lat": 12.954797542168675
  },
  {
    "name": "Barbados",
    "lon": -59.54592968571429,
    "lat": 13.173008457142856
  },
  {
    "name": "Saint Lucia",
    "lon": -60.979688239999994,
    "lat": 13.90825186
  },
  {
    "name": "Dominica",
    "lon": -61.37386690666666,
    "lat": 15.41775568
  },
  {
    "name": "United States Minor Outlying Islands",
    "lon": -122.59275946721311,
    "lat": 13.332269770491804
  },
  {
    "name": "Montserrat",
    "lon": -62.16783778260869,
    "lat": 16.73915008695652
  },
  {
    "name": "Antigua and Barbuda",
    "lon": -61.83513036440678,
    "lat": 17.283941974576273
  },
  {
    "name": "Saint Kitts and Nevis",
    "lon": -62.680519162790695,
    "lat": 17.260039372093022
  },
  {
    "name": "United States Virgin Islands",
    "lon": -64.80331956338028,
    "lat": 18.126384112676057
  },
  {
    "name": "Saint Barthelemy",
    "lon": -62.83685554545455,
    "lat": 17.902718181818184
  },
  {
    "name": "Puerto Rico",
    "lon": -66.34235128052805,
    "lat": 18.178916217821783
  },
  {
    "name": "Anguilla",
    "lon": -63.1172815,
    "lat": 18.275115546875
  },
  {
    "name": "British Virgin Islands",
    "lon": -64.54221737634408,
    "lat": 18.463157612903228
  },
  {
    "name": "Jamaica",
    "lon": -77.25153356299212,
    "lat": 18.108068539370077
  },
  {
    "name": "Cayman Islands",
    "lon": -80.90249592592593,
    "lat": 19.435103580246913
  },
  {
    "name": "Bermuda",
    "lon": -64.78289584705882,
    "lat": 32.30553396470588
  },
  {
    "name": "Heard Island and McDonald Islands",
    "lon": 73.4738483888889,
    "lat": -53.05617677777778
  },
  {
    "name": "Saint Helena",
    "lon": -10.142152253012048,
    "lat": -23.213571277108432
  },
  {
    "name": "Mauritius",
    "lon": 58.404636592920355,
    "lat": -19.103788814159294
  },
  {
    "name": "Comoros",
    "lon": 43.792760188976374,
    "lat": -12.001362811023622
  },
  {
    "name": "S\u00c3\u00a3o Tom\u00c3\u00a9 and Principe",
    "lon": 6.94945653125,
    "lat": 0.8138254479166668
  },
  {
    "name": "Cabo Verde",
    "lon": -23.954329189376445,
    "lat": 15.986123866050809
  },
  {
    "name": "Malta",
    "lon": 14.381358218181818,
    "lat": 35.94553305454546
  },
  {
    "name": "Jersey",
    "lon": -2.1231764893617022,
    "lat": 49.21859323404255
  },
  {
    "name": "Guernsey",
    "lon": -2.43669220338983,
    "lat": 49.50793852542373
  },
  {
    "name": "Isle of Man",
    "lon": -4.541704082191781,
    "lat": 54.20481616438356
  },
  {
    "name": "Aland",
    "lon": 20.223387542372883,
    "lat": 60.17264349364407
  },
  {
    "name": "Faroe Islands",
    "lon": -6.8201067010309275,
    "lat": 62.06984593402062
  },
  {
    "name": "Indian Ocean Territories",
    "lon": 101.42651675925926,
    "lat": -11.302550851851853
  },
  {
    "name": "British Indian Ocean Territory",
    "lon": 72.01218810784314,
    "lat": -6.442309774509804
  },
  {
    "name": "Singapore",
    "lon": 103.8146794,
    "lat": 1.349541475
  },
  {
    "name": "Norfolk Island",
    "lon": 167.95073496153844,
    "lat": -29.040985769230765
  },
  {
    "name": "Cook Islands",
    "lon": -159.23877448091602,
    "lat": -18.11094945038168
  },
  {
    "name": "Tonga",
    "lon": -174.7894615,
    "lat": -19.996571443396224
  },
  {
    "name": "Wallis and Futuna",
    "lon": -176.93409602631579,
    "lat": -13.68064155263158
  },
  {
    "name": "Samoa",
    "lon": -172.15847831060606,
    "lat": -13.773423060606062
  },
  {
    "name": "Solomon Islands",
    "lon": 159.6032499067524,
    "lat": -8.89334800183739
  },
  {
    "name": "Tuvalu",
    "lon": 178.2739587826087,
    "lat": -7.675877739130436
  },
  {
    "name": "Maldives",
    "lon": 73.18456595460798,
    "lat": 4.221633561210454
  },
  {
    "name": "Nauru",
    "lon": 166.93537677777778,
    "lat": -0.5177818888888889
  },
  {
    "name": "Federated States of Micronesia",
    "lon": 152.52467648031498,
    "lat": 6.686773929133858
  },
  {
    "name": "South Georgia and the Islands",
    "lon": -34.66748590614335,
    "lat": -55.124284991467576
  },
  {
    "name": "Falkland Islands",
    "lon": -59.63755335074627,
    "lat": -51.76479400895522
  },
  {
    "name": "Vanuatu",
    "lon": 167.8447322857143,
    "lat": -16.182066744827587
  },
  {
    "name": "Niue",
    "lon": -169.8916192222222,
    "lat": -19.061465083333335
  },
  {
    "name": "American Samoa",
    "lon": -169.9929900655738,
    "lat": -13.964680278688524
  },
  {
    "name": "Palau",
    "lon": 134.0972523757576,
    "lat": 6.87005463030303
  },
  {
    "name": "Guam",
    "lon": 144.75197708163265,
    "lat": 13.451127204081633
  },
  {
    "name": "Northern Mariana Islands",
    "lon": 145.5629876612022,
    "lat": 16.80698975409836
  },
  {
    "name": "Bahrain",
    "lon": 50.65783159183673,
    "lat": 25.91964395238095
  },
  {
    "name": "Coral Sea Islands",
    "lon": 154.39059525,
    "lat": -21.0294735
  },
  {
    "name": "Spratly Islands",
    "lon": 114.80770517647059,
    "lat": 10.440152470588234
  },
  {
    "name": "Clipperton Island",
    "lon": -109.22016957142857,
    "lat": 10.298105142857143
  },
  {
    "name": "Macao S.A.R",
    "lon": 113.55139332608697,
    "lat": 22.16600608695652
  },
  {
    "name": "Ashmore and Cartier Islands",
    "lon": 123.5884872,
    "lat": -12.4317198
  },
  {
    "name": "Bajo Nuevo Bank (Petrel Is.)",
    "lon": -79.98818940000001,
    "lat": 15.794940800000001
  },
  {
    "name": "Serranilla Bank",
    "lon": -78.6378575,
    "lat": 15.863867500000001
  },
  {
    "name": "Scarborough Reef",
    "lon": 117.7538418,
    "lat": 15.152518800000001
  }
]